[
  {
    "name": "Gordon",
    "lat": -42.74,
    "lon": 145.98
  },
  {
    "name": "Poatina",
    "lat": -41.82,
    "lon": 146.88
  },
  {
    "name": "Liapootah",
    "lat": -42.48,
    "lon": 146.55
  },
  {
    "name": "Cluny",
    "lat": -42.62,
    "lon": 146.73
  },
  {
    "name": "Tungatinah",
    "lat": -42.32,
    "lon": 146.61
  },
  {
    "name": "Wayatinah",
    "lat": -42.38,
    "lon": 146.63
  },
  {
    "name": "Repulse",
    "lat": -42.57,
    "lon": 146.77
  },
  {
    "name": "Meadowbank",
    "lat": -42.64,
    "lon": 146.9
  },
  {
    "name": "Cethana",
    "lat": -41.41,
    "lon": 146.22
  },
  {
    "name": "Fisher",
    "lat": -41.66,
    "lon": 146.29
  },
  {
    "name": "Devils Gate",
    "lat": -41.47,
    "lon": 146.25
  },
  {
    "name": "Mackintosh",
    "lat": -41.59,
    "lon": 145.55
  },
  {
    "name": "Bastyan",
    "lat": -41.64,
    "lon": 145.58
  },
  {
    "name": "Reece",
    "lat": -41.69,
    "lon": 145.51
  },
  {
    "name": "Tribute",
    "lat": -41.69,
    "lon": 145.57
  }
]